{
   "type": "FeatureCollection",
   "features": [
  {
    "type": "Feature",
    "geometry": {
       "type": "Point",
       "coordinates":  [ 114.97504,38.52006 ]
    },
    "properties": {
    "county_han":"卢奴县",
    "county_xin":"卢奴县",
    "SOURCE":"CHGIS",
    "ID":21301,
    "name_type":"不改"
    }
  },
  {
    "type": "Feature",
    "geometry": {
       "type": "Point",
       "coordinates":  [ 115.30381,38.95788 ]
    },
    "properties": {
    "county_han":"北平县",
    "county_xin":"善和县",
    "SOURCE":"CHGIS",
    "ID":21302,
    "name_type":"嘉名"
    }
  },
  {
    "type": "Feature",
    "geometry": {
       "type": "Point",
       "coordinates":  [ 115.57202,38.96057 ]
    },
    "properties": {
    "county_han":"北新成县",
    "county_xin":"朔平县",
    "SOURCE":"CHGIS",
    "ID":21303,
    "name_type":"全改"
    }
  },
  {
    "type": "Feature",
    "geometry": {
       "type": "Point",
       "coordinates":  [ 115.02761,38.82413 ]
    },
    "properties": {
    "county_han":"唐县",
    "county_xin":"和亲县",
    "SOURCE":"CHGIS",
    "ID":21304,
    "name_type":"意义"
    }
  },
  {
    "type": "Feature",
    "geometry": {
       "type": "Point",
       "coordinates":  [ 115.19209,38.1849 ]
    },
    "properties": {
    "county_han":"深泽县",
    "county_xin":"翼和县",
    "SOURCE":"CHGIS",
    "ID":21305,
    "name_type":"嘉名"
    }
  },
  {
    "type": "Feature",
    "geometry": {
       "type": "Point",
       "coordinates":  [ 115.0134,38.31078 ]
    },
    "properties": {
    "county_han":"苦陉县",
    "county_xin":"北陉县",
    "SOURCE":"CHGIS",
    "ID":21306,
    "name_type":"改一"
    }
  },
  {
    "type": "Feature",
    "geometry": {
       "type": "Point",
       "coordinates":  [ 115.38495,38.36392 ]
    },
    "properties": {
    "county_han":"安国县",
    "county_xin":"兴睦县",
    "SOURCE":"CHGIS",
    "ID":21307,
    "name_type":"嘉名"
    }
  },
  {
    "type": "Feature",
    "geometry": {
       "type": "Point",
       "coordinates":  [ 115.22289,38.7945 ]
    },
    "properties": {
    "county_han":"曲逆县",
    "county_xin":"顺平县",
    "SOURCE":"CHGIS",
    "ID":21308,
    "name_type":"反"
    }
  },
  {
    "type": "Feature",
    "geometry": {
       "type": "Point",
       "coordinates":  [ 115.11769,38.74389 ]
    },
    "properties": {
    "county_han":"望都县",
    "county_xin":"顺调县",
    "SOURCE":"CHGIS",
    "ID":21309,
    "name_type":"嘉名"
    }
  },
  {
    "type": "Feature",
    "geometry": {
       "type": "Point",
       "coordinates":  [ 114.68176,38.26879 ]
    },
    "properties": {
    "county_han":"新市县",
    "county_xin":"新市县",
    "SOURCE":"CHGIS",
    "ID":21310,
    "name_type":"不改"
    }
  },
  {
    "type": "Feature",
    "geometry": {
       "type": "Point",
       "coordinates":  [ 115.0795,38.67974 ]
    },
    "properties": {
    "county_han":"新处县",
    "county_xin":"新处县",
    "SOURCE":"CHGIS",
    "ID":21311,
    "name_type":"不改"
    }
  },
  {
    "type": "Feature",
    "geometry": {
       "type": "Point",
       "coordinates":  [ 114.82801,38.17812 ]
    },
    "properties": {
    "county_han":"毋极县",
    "county_xin":"毋极县",
    "SOURCE":"CHGIS",
    "ID":21312,
    "name_type":"不改"
    }
  },
  {
    "type": "Feature",
    "geometry": {
       "type": "Point",
       "coordinates":  [ 115.53719,38.46474 ]
    },
    "properties": {
    "county_han":"陆成县",
    "county_xin":"陆成县",
    "SOURCE":"CHGIS",
    "ID":21313,
    "name_type":"不改"
    }
  },
  {
    "type": "Feature",
    "geometry": {
       "type": "Point",
       "coordinates":  [ 115.12755,38.47064 ]
    },
    "properties": {
    "county_han":"安险县",
    "county_xin":"宁险县",
    "SOURCE":"CHGIS",
    "ID":21314,
    "name_type":"改一"
    }
  }
]
}