{
   "type": "FeatureCollection",
   "features": [
  {
    "type": "Feature",
    "geometry": {
       "type": "Point",
       "coordinates":  [ 111.7839533,40.4419458 ]
    },
    "properties": {
    "county_han":"成乐县",
    "county_xin":"成乐县",
    "SOURCE":"PUBLICATION",
    "ID":70201,
    "name_type":"不改"
    }
  },
  {
    "type": "Feature",
    "geometry": {
       "type": "Point",
       "coordinates":  [ 111.5151143,39.8932231 ]
    },
    "properties": {
    "county_han":"桐过县",
    "county_xin":"椅桐县",
    "SOURCE":"PUBLICATION",
    "ID":70202,
    "name_type":"改一"
    }
  },
  {
    "type": "Feature",
    "geometry": {
       "type": "Point",
       "coordinates":  [ 111.9952523,40.6064377 ]
    },
    "properties": {
    "county_han":"武进县",
    "county_xin":"伐蛮县",
    "SOURCE":"PUBLICATION",
    "ID":70204,
    "name_type":"意义"
    }
  },
  {
    "type": "Feature",
    "geometry": {
       "type": "Point",
       "coordinates":  [ 112.0757073,40.8853676 ]
    },
    "properties": {
    "county_han":"武皋县",
    "county_xin":"永武县",
    "SOURCE":"PUBLICATION",
    "ID":70206,
    "name_type":"意义"
    }
  },
  {
    "type": "Feature",
    "geometry": {
       "type": "Point",
       "coordinates":  [ 111.4006333,39.8145641 ]
    },
    "properties": {
    "county_han":"骆县",
    "county_xin":"遮要县",
    "SOURCE":"PUBLICATION",
    "ID":70207,
    "name_type":"?"
    }
  },
  {
    "type": "Feature",
    "geometry": {
       "type": "Point",
       "coordinates":  [ 111.8804893,40.7899396 ]
    },
    "properties": {
    "county_han":"安陶县",
    "county_xin":"迎符县",
    "SOURCE":"PUBLICATION",
    "ID":70208,
    "name_type":"嘉名"
    }
  },
  {
    "type": "Feature",
    "geometry": {
       "type": "Point",
       "coordinates":  [ 112.2023373,40.9473785 ]
    },
    "properties": {
    "county_han":"武要县",
    "county_xin":"厌胡县",
    "SOURCE":"PUBLICATION",
    "ID":70210,
    "name_type":"意义"
    }
  },
  {
    "type": "Feature",
    "geometry": {
       "type": "Point",
       "coordinates":  [ 111.8085793,40.7506036 ]
    },
    "properties": {
    "county_han":"定襄县",
    "county_xin":"著武县",
    "SOURCE":"PUBLICATION",
    "ID":70211,
    "name_type":"意义"
    }
  },
  {
    "type": "Feature",
    "geometry": {
       "type": "Point",
       "coordinates":  [ 111.6304703,40.085805 ]
    },
    "properties": {
    "county_han":"武城县",
    "county_xin":"桓就县",
    "SOURCE":"PUBLICATION",
    "ID":70209,
    "name_type":"全改"
    }
  }
]
}