{
   "type": "FeatureCollection",
   "features": [
  {
    "type": "Feature",
    "geometry": {
       "type": "Point",
       "coordinates":  [ 119.40398,35.99335 ]
    },
    "properties": {
    "county_han":"东武县",
    "county_xin":"祥善县",
    "SOURCE":"CHGIS",
    "ID":23301,
    "name_type":"嘉名"
    }
  },
  {
    "type": "Feature",
    "geometry": {
       "type": "Point",
       "coordinates":  [ 120.37079,36.30302 ]
    },
    "properties": {
    "county_han":"不其县",
    "county_xin":"不其县",
    "SOURCE":"CHGIS",
    "ID":23302,
    "name_type":"不改"
    }
  },
  {
    "type": "Feature",
    "geometry": {
       "type": "Point",
       "coordinates":  [ 119.40339,35.41991 ]
    },
    "properties": {
    "county_han":"海曲县",
    "county_xin":"海曲县",
    "SOURCE":"CHGIS",
    "ID":23303,
    "name_type":"不改"
    }
  },
  {
    "type": "Feature",
    "geometry": {
       "type": "Point",
       "coordinates":  [ 119.110076,34.982351 ]
    },
    "properties": {
    "county_han":"赣榆县",
    "county_xin":"赣榆县",
    "SOURCE":"CHGIS",
    "ID":23304,
    "name_type":"不改"
    }
  },
  {
    "type": "Feature",
    "geometry": {
       "type": "Point",
       "coordinates":  [ 119.22038,35.91977 ]
    },
    "properties": {
    "county_han":"诸县",
    "county_xin":"诸并县",
    "SOURCE":"CHGIS",
    "ID":23306,
    "name_type":"加一"
    }
  },
  {
    "type": "Feature",
    "geometry": {
       "type": "Point",
       "coordinates":  [ 119.09924,36.12208 ]
    },
    "properties": {
    "county_han":"灵门县",
    "county_xin":"灵门县",
    "SOURCE":"CHGIS",
    "ID":23308,
    "name_type":"不改"
    }
  },
  {
    "type": "Feature",
    "geometry": {
       "type": "Point",
       "coordinates":  [ 119.09924,36.12208 ]
    },
    "properties": {
    "county_han":"姑幕县",
    "county_xin":"季睦县",
    "SOURCE":"CHGIS",
    "ID":23309,
    "name_type":"嘉名"
    }
  },
  {
    "type": "Feature",
    "geometry": {
       "type": "Point",
       "coordinates":  [ 118.59043,36.51717 ]
    },
    "properties": {
    "county_han":"临原侯国",
    "county_xin":"填夷亭县",
    "SOURCE":"CHGIS",
    "ID":23311,
    "name_type":"亭"
    }
  },
  {
    "type": "Feature",
    "geometry": {
       "type": "Point",
       "coordinates":  [ 119.84844,35.69094 ]
    },
    "properties": {
    "county_han":"琅邪县",
    "county_xin":"琅邪县",
    "SOURCE":"CHGIS",
    "ID":23312,
    "name_type":"不改"
    }
  },
  {
    "type": "Feature",
    "geometry": {
       "type": "Point",
       "coordinates":  [ 119.99307,36.07916 ]
    },
    "properties": {
    "county_han":"柜县",
    "county_xin":"祓同县",
    "SOURCE":"CHGIS",
    "ID":23314,
    "name_type":"嘉名"
    }
  },
  {
    "type": "Feature",
    "geometry": {
       "type": "Point",
       "coordinates":  [ 119.70118,36.15749 ]
    },
    "properties": {
    "county_han":"邞县",
    "county_xin":"纯德县",
    "SOURCE":"CHGIS",
    "ID":23316,
    "name_type":"嘉名"
    }
  },
  {
    "type": "Feature",
    "geometry": {
       "type": "Point",
       "coordinates":  [ 119.7812,36.05701 ]
    },
    "properties": {
    "county_han":"黔陬县",
    "county_xin":"黔陬县",
    "SOURCE":"CHGIS",
    "ID":23318,
    "name_type":"不改"
    }
  },
  {
    "type": "Feature",
    "geometry": {
       "type": "Point",
       "coordinates":  [ 119.99147,36.29639 ]
    },
    "properties": {
    "county_han":"计斤县",
    "county_xin":"计斤县",
    "SOURCE":"CHGIS",
    "ID":23320,
    "name_type":"不改"
    }
  },
  {
    "type": "Feature",
    "geometry": {
       "type": "Point",
       "coordinates":  [ 119.49437,36.29815 ]
    },
    "properties": {
    "county_han":"稻侯国",
    "county_xin":"稻县",
    "SOURCE":"CHGIS",
    "ID":23321,
    "name_type":"不改"
    }
  },
  {
    "type": "Feature",
    "geometry": {
       "type": "Point",
       "coordinates":  [ 120.70745,36.46771 ]
    },
    "properties": {
    "county_han":"皋虞侯国",
    "county_xin":"盈庐县",
    "SOURCE":"CHGIS",
    "ID":23322,
    "name_type":"?"
    }
  },
  {
    "type": "Feature",
    "geometry": {
       "type": "Point",
       "coordinates":  [ 120.86842,37.01167 ]
    },
    "properties": {
    "county_han":"长广县",
    "county_xin":"长广县",
    "SOURCE":"CHGIS",
    "ID":23324,
    "name_type":"不改"
    }
  },
  {
    "type": "Feature",
    "geometry": {
       "type": "Point",
       "coordinates":  [ 119.57275,35.89519 ]
    },
    "properties": {
    "county_han":"横县",
    "county_xin":"令丘县",
    "SOURCE":"CHGIS",
    "ID":23325,
    "name_type":"?"
    }
  },
  {
    "type": "Feature",
    "geometry": {
       "type": "Point",
       "coordinates":  [ 118.62395,35.79103 ]
    },
    "properties": {
    "county_han":"东莞县",
    "county_xin":"东莞县",
    "SOURCE":"CHGIS",
    "ID":23326,
    "name_type":"不改"
    }
  },
  {
    "type": "Feature",
    "geometry": {
       "type": "Point",
       "coordinates":  [ 118.47497,35.03703 ]
    },
    "properties": {
    "county_han":"魏其侯国",
    "county_xin":"青泉县",
    "SOURCE":"CHGIS",
    "ID":23327,
    "name_type":"?"
    }
  },
  {
    "type": "Feature",
    "geometry": {
       "type": "Point",
       "coordinates":  [ 119.46484,36.0885 ]
    },
    "properties": {
    "county_han":"昌县",
    "county_xin":"昌县",
    "SOURCE":"CHGIS",
    "ID":23328,
    "name_type":"不改"
    }
  },
  {
    "type": "Feature",
    "geometry": {
       "type": "Point",
       "coordinates":  [ 119.09138,36.17898 ]
    },
    "properties": {
    "county_han":"兹乡侯国",
    "county_xin":"兹乡县",
    "SOURCE":"CHGIS",
    "ID":23329,
    "name_type":"不改"
    }
  },
  {
    "type": "Feature",
    "geometry": {
       "type": "Point",
       "coordinates":  [ 119.00708,35.86647 ]
    },
    "properties": {
    "county_han":"箕侯国",
    "county_xin":"箕县",
    "SOURCE":"CHGIS",
    "ID":23330,
    "name_type":"不改"
    }
  },
  {
    "type": "Feature",
    "geometry": {
       "type": "Point",
       "coordinates":  [ 119.00465,35.27481 ]
    },
    "properties": {
    "county_han":"椑县",
    "county_xin":"识命县",
    "SOURCE":"CHGIS",
    "ID":23331,
    "name_type":"意义"
    }
  },
  {
    "type": "Feature",
    "geometry": {
       "type": "Point",
       "coordinates":  [ 118.74435,35.47238 ]
    },
    "properties": {
    "county_han":"高广侯国",
    "county_xin":"高广县",
    "SOURCE":"CHGIS",
    "ID":23332,
    "name_type":"不改"
    }
  },
  {
    "type": "Feature",
    "geometry": {
       "type": "Point",
       "coordinates":  [ 118.82428,35.18228 ]
    },
    "properties": {
    "county_han":"高乡侯国",
    "county_xin":"高乡县",
    "SOURCE":"CHGIS",
    "ID":23333,
    "name_type":"不改"
    }
  },
  {
    "type": "Feature",
    "geometry": {
       "type": "Point",
       "coordinates":  [ 119.14979,35.23772 ]
    },
    "properties": {
    "county_han":"高阳侯国",
    "county_xin":"高阳县",
    "SOURCE":"CHGIS",
    "ID":23340,
    "name_type":"不改"
    }
  },
  {
    "type": "Feature",
    "geometry": {
       "type": "Point",
       "coordinates":  [ 119.32262,35.74177 ]
    },
    "properties": {
    "county_han":"昆山侯国",
    "county_xin":"昆山县",
    "SOURCE":"CHGIS",
    "ID":23341,
    "name_type":"不改"
    }
  },
  {
    "type": "Feature",
    "geometry": {
       "type": "Point",
       "coordinates":  [ 119.17777,35.77022 ]
    },
    "properties": {
    "county_han":"折泉侯国",
    "county_xin":"折泉县",
    "SOURCE":"CHGIS",
    "ID":23343,
    "name_type":"不改"
    }
  },
  {
    "type": "Feature",
    "geometry": {
       "type": "Point",
       "coordinates":  [ 119.38731,36.31668 ]
    },
    "properties": {
    "county_han":"安丘侯国",
    "county_xin":"宁乡县",
    "SOURCE":"CHGIS",
    "ID":23348,
    "name_type":"乡"
    }
  },
  {
    "type": "Feature",
    "geometry": {
       "type": "Point",
       "coordinates":  [ 119.7461763,36.062405 ]
    },
    "properties": {
    "county_han":"祓侯国",
    "county_xin":"祓县",
    "SOURCE":"ONLINE",
    "ID":23313,
    "name_type":"不改"
    }
  },
  {
    "type": "Feature",
    "geometry": {
       "type": "Point",
       "coordinates":  [ 119.0955761,35.9883763 ]
    },
    "properties": {
    "county_han":"丽侯国",
    "county_xin":"丽县",
    "SOURCE":"ONLINE",
    "ID":23336,
    "name_type":"不改"
    }
  },
  {
    "type": "Feature",
    "geometry": {
       "type": "Point",
       "coordinates":  [ 118.2958487,35.697661 ]
    },
    "properties": {
    "county_han":"新山侯国",
    "county_xin":"新山县",
    "SOURCE":"ONLINE",
    "ID":23339,
    "name_type":"不改"
    }
  },
  {
    "type": "Feature",
    "geometry": {
       "type": "Point",
       "coordinates":  [ 118.6710902,36.5276548 ]
    },
    "properties": {
    "county_han":"房山侯国",
    "county_xin":"房山县",
    "SOURCE":"ONLINE",
    "ID":23345,
    "name_type":"不改"
    }
  },
  {
    "type": "Feature",
    "geometry": {
       "type": "Point",
       "coordinates":  [ 118.8056,36.4137 ]
    },
    "properties": {
    "county_han":"朱虚县",
    "county_xin":"朱虚县",
    "SOURCE":"SKDLJG",
    "ID":23305,
    "name_type":"不改"
    }
  },
  {
    "type": "Feature",
    "geometry": {
       "type": "Point",
       "coordinates":  [ 118.9451,36.305 ]
    },
    "properties": {
    "county_han":"梧成县",
    "county_xin":"梧成县",
    "SOURCE":"SKDLJG",
    "ID":23307,
    "name_type":"不改"
    }
  },
  {
    "type": "Feature",
    "geometry": {
       "type": "Point",
       "coordinates":  [ 118.648,36.4236 ]
    },
    "properties": {
    "county_han":"缾侯国",
    "county_xin":"缾县",
    "SOURCE":"SKDLJG",
    "ID":23315,
    "name_type":"不改"
    }
  }
]
}